[
  {
    "id": "m1",
    "name": "中大湖水怪",
    "type": "水",
    "imageURL": "assets/images/fairy_img/zhongda_lake.png",
    "location": { "latitude": 24.9702, "longitude": 121.1955 },
    "architectureRef": "/architectures/a1",
    "qaRef": "/questions/qa1",
    "ARRef": "NCU_Lake.usdz"
  },
  {
    "id": "m2",
    "name": "客家狗",
    "type": "金",
    "imageURL": "assets/images/fairy_img/hakka_college.png",
    "location": { "latitude": 24.9707, "longitude": 121.1904 },
    "architectureRef": "/architectures/a6",
    "qaRef": "/questions/qa6",
    "ARRef": "Hakka.usdz"
  },
  {
    "id": "m3",
    "name": "小蛋球",
    "type": "木",
    "imageURL": "assets/images/fairy_img/geoscience.png",
    "location": { "latitude": 24.9670, "longitude": 121.1946 },
    "architectureRef": "/architectures/a3",
    "qaRef": "/questions/qa3",
    "ARRef": "ES.usdz"
  },
  {
    "id": "m4",
    "name": "大大象",
    "type": "火",
    "imageURL": "assets/images/fairy_img/elephant_five_forms.png",
    "location": { "latitude": 24.9689, "longitude": 121.1953 },
    "architectureRef": "/architectures/a4",
    "qaRef": "/questions/qa4",
    "ARRef": ""
  },
  {
    "id": "m5",
    "name": "小拳極",
    "type": "火",
    "imageURL": "assets/images/fairy_img/taichi_sculpture.png",
    "location": { "latitude": 24.9694, "longitude": 121.1937 },
    "architectureRef": "/architectures/a5",
    "qaRef": "/questions/qa5",
    "ARRef": ""
  },
  {
    "id": "m6",
    "name": "機居械",
    "type": "火",
    "imageURL": "assets/images/fairy_img/engineering.png",
    "location": { "latitude": 24.9670, "longitude": 121.1875 },
    "architectureRef": "/architectures/a7",
    "qaRef": "",
    "ARRef": ""
  },
  {
    "id": "m7",
    "name": "讀書怪",
    "type": "火",
    "imageURL": "assets/images/fairy_img/literature.png",
    "location": { "latitude": 24.9691, "longitude": 121.1946 },
    "architectureRef": "/architectures/a8",
    "qaRef": "/questions/qa8",
    "ARRef": "language.usdz"
  },
  {
    "id": "m8",
    "name": "嚶嚶嚶",
    "type": "火",
    "imageURL": "assets/images/fairy_img/friendship_cherry.png",
    "location": { "latitude": 24.9701, "longitude": 121.1918 },
    "architectureRef": "/architectures/a2",
    "qaRef": "/questions/qa2",
    "ARRef": "YMCA.usdz"
  },
  {
    "id": "m9",
    "name": "環寶寶",
    "type": "火",
    "imageURL": "assets/images/fairy_img/sustainability_college.png",
    "location": { "latitude": 24.9684, "longitude": 121.1918 },
    "architectureRef": "/architectures/a9",
    "qaRef": "/questions/qa9",
    "ARRef": "Recycle.usdz"
  },
  {
    "id": "m10",
    "name": "數碼博士",
    "type": "火",
    "imageURL": "assets/images/fairy_img/science_college.png",
    "location": { "latitude": 24.9700, "longitude": 121.1926 },
    "architectureRef": "/architectures/a10",
    "qaRef": "/questions/qa10"
  },
  {
    "id": "m11",
    "name": "大英菌",
    "type": "火",
    "imageURL": "assets/images/fairy_img/biomedical_college.png",
    "location": { "latitude": 24.9676, "longitude": 121.1876 },
    "architectureRef": "/architectures/a11",
    "qaRef": "/questions/qa11"
  },
  {
    "id": "m12",
    "name": "毛毛精靈",
    "type": "火",
    "imageURL": "assets/images/fairy_img/baihua_river.png",
    "location": { "latitude": 24.9697, "longitude": 121.1932 },
    "architectureRef": "/architectures/a12",
    "qaRef": "/questions/qa12",
    "ARRef": "flower_river.usdz"
  },
  {
    "id": "m13",
    "name": "SM獸",
    "type": "火",
    "imageURL": "assets/images/fairy_img/business_college.png",
    "location": { "latitude": 24.9706, "longitude": 121.1935 },
    "architectureRef": "/architectures/a13",
    "qaRef": "/questions/qa13",
    "ARRef": "Management.usdz"
  },
  {
    "id": "m14",
    "name": "亮晶精",
    "type": "火",
    "imageURL": "assets/images/fairy_img/electrical_college.png",
    "location": { "latitude": 24.9670, "longitude": 121.1916 },
    "architectureRef": "/architectures/a14",
    "qaRef": "/questions/qa14",
    "ARRef": "Infor_Engineering.usdz"
  },
  {
    "id": "m15",
    "name" : "",
    "tyoe": "",
    "imageURL": "assets/images/fairy_img/electrical_college.jpg",
    "location": { "latitude": , "longitude":  },
    "architectureRef": "",
    "qaRef": "/questions/qa",
    "ARRef": ""
  },
  {
    "id": "m16",
    "name" : "",
    "tyoe": "",
    "imageURL": "assets/images/fairy_img/electrical_college.jpg",
    "location": { "latitude": , "longitude":  },
    "architectureRef": "",
    "qaRef": "/questions/qa",
    "ARRef": ""
  }
]
